foodnames,imgs,lat,lon,picture_existence,north,west,side,main,east,tech
"볶음짜장 2인 (황금성) / 10,000원",https://mblogthumb-phinf.pstatic.net/MjAxODAzMjdfMjEw/MDAxNTIyMTA4MDQ5MTY0.dywtFICTJU4tDDqSZGU2grUz3P4CFvWTXc-fIG_S1rMg.1VkOIhhNggtk2ccrULFKWjA4RljohJP25HBRL7qypkQg.JPEG.momo-66/20180326_192905.jpg?type=w800,35.8920088,128.6154324,FALSE,FALSE,FALSE,FALSE,FALSE,FALSE,TRUE
"짬뽕 (황금성) / 4,000원",https://mblogthumb-phinf.pstatic.net/MjAxODAzMjdfMjE3/MDAxNTIyMTA4MDQ2NTM2.5Wpgf4mjc-ukSDo2AG3cl6bcQ7Op-3gMkaiqik1_xlkg.zC3G4Flq803zp1q7FIyRdLW9Z6owUOWqXA4XdCO3PCYg.JPEG.momo-66/20180326_192832.jpg?type=w800,35.8920088,128.6154324,FALSE,FALSE,FALSE,FALSE,FALSE,FALSE,TRUE
"깐풍육 미니 (황금성) / 9,000원",https://mblogthumb-phinf.pstatic.net/MjAxODAzMjdfMTk2/MDAxNTIyMTA4MDUxNDE3.9mODDLHvkvMSV9ZqagTxFMB8cE5KEsWRy6Okp-z6Seog.MysxujgWI5ir2EU3v4pvdJeY6v9N5MZXuGNHeQ-ZkVog.JPEG.momo-66/20180326_193124.jpg?type=w800,35.8920088,128.6154324,FALSE,FALSE,FALSE,FALSE,FALSE,FALSE,TRUE
"고추장불고기 2인 (선희네밥상) / 10,000원",https://mblogthumb-phinf.pstatic.net/20140314_189/knu_math_1394732846190HEbYM_JPEG/DSC08657.jpg?type=w800,35.8920599,128.6153254,FALSE,FALSE,FALSE,FALSE,FALSE,FALSE,TRUE
"불고기백반 (찬누리식당) / 5,500원",https://mblogthumb-phinf.pstatic.net/MjAxODAzMjFfMTYx/MDAxNTIxNjIwMzQwNDUw.7kxpbUfubM6KdZniyUg_8RLtmXqt3BQRu7OgrtZRGDUg.wq_F_83qG0MvJ8e9tU_v8lrFb9GBXINuY0Fh9llpVhcg.JPEG.82gaboza/%25EC%25B0%25AC%25EB%2588%2584%25EB%25A6%25AC6.jpg?type=w800,35.8922699,128.6151343,FALSE,FALSE,FALSE,FALSE,FALSE,FALSE,TRUE
"해장국 (또바기감자탕) / 7,000원",https://t1.daumcdn.net/cfile/tistory/2155B2485427B0E017,35.895955,128.6134502,FALSE,TRUE,FALSE,FALSE,FALSE,FALSE,FALSE
"꼬탕+공기밥 (왕추찜닭) / 6,000원",https://mblogthumb-phinf.pstatic.net/MjAxOTA5MTBfNTQg/MDAxNTY4MTEwNTI1NTQ1.leNNmPIoDKMcI7bACiMhjKJN2VYOQiF-scStbikDJTgg.m-g9L5ihC7M7STj6-vJQnTRCV163KK1TZKGxl3dhwzgg.JPEG.lee603/20190118_124617.jpg?type=w800,35.8880607,128.603247,FALSE,FALSE,TRUE,FALSE,FALSE,FALSE,FALSE
"생연어 덮밥 (소를 품은 연어) / 9,500원",https://pbs.twimg.com/media/Duc6bM3UYAAePpo?format=jpg&name=large,35.8937354,128.6086069,FALSE,TRUE,FALSE,FALSE,FALSE,FALSE,FALSE
"김치가츠나베 (도쿄엔) / 7,500원",https://mblogthumb-phinf.pstatic.net/MjAxODEwMDFfOSAg/MDAxNTM4MzcyNzIzOTM2.T2OykjKYioggtbZ_4ZgZbFLZDRTyXQ49eO2aPmL8NnIg.KMwJPetmfZGvn5swUZkbgSLTPWU9QtN0UTsZiklWW14g.JPEG.anyoue67/20181001_131357.jpg?type=w800,35.8939893,128.6098927,FALSE,TRUE,FALSE,FALSE,FALSE,FALSE,FALSE
"제육볶음 (찬누리식당) / 5,500원",https://mblogthumb-phinf.pstatic.net/MjAxODA5MDFfMjM5/MDAxNTM1Nzg1OTU3MDc0.3TnaoJ5Fyjh2BXaeyHaTy6-Ght__yogImZvpcjURhvEg.lOWBdB0_MsH_zhkXR9m-BRkp5P4NcH8vU84uYlFLlaUg.JPEG.pizza_bot/LRG_DSC00801.jpg?type=w800,35.8922699,128.6151343,FALSE,FALSE,FALSE,FALSE,FALSE,FALSE,TRUE
"오므라이스 (모이다식탁) / 6,000원",https://t1.daumcdn.net/cfile/tistory/99D5D63B5B8A727111,35.8847813,128.6136587,FALSE,FALSE,FALSE,FALSE,TRUE,FALSE,FALSE
"베이컨새우볶음밥 (모이다식탁) / 6,000원",https://t1.daumcdn.net/cfile/tistory/2112E748582D7D7216,35.8847813,128.6136587,FALSE,FALSE,FALSE,FALSE,TRUE,FALSE,FALSE
"안심돈가스 반상 (돈가스반상&불국수) / 7,900원",https://mblogthumb-phinf.pstatic.net/MjAxODEyMTJfMzAw/MDAxNTQ0NTk5Mzc1MDQz.z_Ad47E8SSBbceMKV8nHTJfi7ycDIcyKtBdDmQYE91Ig.1OCkMk4MgnWL49psaFcU_H_KCt6vxqxOO6EqezaMrjIg.JPEG.kjy0867/KakaoTalk_Moim_649yXxJ9kCw7LbLyrXSveMaBL2dsZ3.jpg?type=w800,35.8944285,128.610389,FALSE,TRUE,FALSE,FALSE,FALSE,FALSE,FALSE
"쌀국수 (반미리코) / 8,500원",https://modo-phinf.pstatic.net/20180404_142/1522769751184qM9Oa_JPEG/mosaS1cvxq.jpeg?type=w720,35.8946611,128.6110831,FALSE,TRUE,FALSE,FALSE,FALSE,FALSE,FALSE
"팟타이 (반미리코) / 8,500원",https://modo-phinf.pstatic.net/20180404_53/1522769812704zlITr_JPEG/mosakiVTSe.jpeg?type=w720,35.8946611,128.6110831,FALSE,TRUE,FALSE,FALSE,FALSE,FALSE,FALSE
"반미피자 (반미리코) / 10,000원",https://modo-phinf.pstatic.net/20160706_280/1467731168971iiAzp_JPEG/mosa5rHh3w.jpeg?type=w720,35.8946611,128.6110831,FALSE,TRUE,FALSE,FALSE,FALSE,FALSE,FALSE
"나이스라이스 (지지고) / 4,000원",https://mblogthumb-phinf.pstatic.net/MjAxNzA1MzBfMjMg/MDAxNDk2MTQxNzg5MTkz.yVYyfMKAL1Jn7ORRvlyS0kEygbDTowozu-d0u7j45PAg.QaVMkFwQQP7GDTwBFTk0hSqy4DWoFB2MI7cb_n3dsGsg.JPEG.hyy2831/20170524_213738.jpg?type=w800,35.8930566,128.6089728,FALSE,TRUE,FALSE,FALSE,FALSE,FALSE,FALSE
"스테이크덮밥 (소를 품은 연어) / 9,000원",https://scontent-frt3-1.cdninstagram.com/v/t51.2885-15/e35/s240x240/70675145_497749504393634_3362269241350100495_n.jpg?_nc_ht=scontent-frt3-1.cdninstagram.com&_nc_cat=102&_nc_ohc=_d4fcD24KKkAX_kDdzz&oh=44666a09de156bd1fdf3b4fad73ea04b&oe=5E89CD3B&ig_cache_key=MjE0NTcwNDA0NDI4MjU2NDg5NA%3D%3D.2,35.8937354,128.6086069,FALSE,TRUE,FALSE,FALSE,FALSE,FALSE,FALSE
"꿔바로우 (마라관) / 15,000원",https://mblogthumb-phinf.pstatic.net/MjAxOTA4MjlfMjM5/MDAxNTY3MDY2MDY3NTEy.WolJghld6rwEABtv_j0WuAzIF-HLPPFdfQgN6i4nbsEg.zWQkbAzWLjpdwYxbc9wcMS9T5b3OskOZ9T_bEgkWmuUg.JPEG.hhjii712/IMG_7851.jpg?type=w800,35.893427,128.6078846,FALSE,TRUE,FALSE,FALSE,FALSE,FALSE,FALSE
"새우봉골레올리브 (앞치마 입는 남자) / 8,500원",https://mblogthumb-phinf.pstatic.net/MjAxOTA1MjhfMjQ4/MDAxNTU5MDMyNDgxODU2.1lgnQF7DCBa-LJ5hI9LhJKMcr15sXBIkSXLBi3xYGPEg.aKUH1jDbNqPSkQYRznYzROd4hzq8EpGUOLzmurmIZZEg.JPEG.hyeoniyo16/IMG_6604.jpg?type=w800,35.8950851,128.6094004,FALSE,TRUE,FALSE,FALSE,FALSE,FALSE,FALSE
"맥시칸비프칠리버거 (다이나믹치킨) / 8,500원 (단품 6,000원)",https://scontent-yyz1-1.cdninstagram.com/v/t51.2885-15/sh0.08/e35/s640x640/30079300_1915473695450160_5738329208015290368_n.jpg?_nc_ht=scontent-yyz1-1.cdninstagram.com&_nc_cat=100&_nc_ohc=4rNclVjOuaoAX8_grk-&oh=222a6c4c772aa7e14e0eace04cef8482&oe=5E9FD8F4,35.889048,128.6168439,FALSE,FALSE,FALSE,FALSE,FALSE,TRUE,FALSE
"규동 (혼덮밥) / 5,900원",images/규동_혼덮밥.jpg,35.8849473,128.6100814,TRUE,FALSE,FALSE,TRUE,FALSE,FALSE,FALSE
"매운돈가스 반상 (돈가스반상&불국수) / 8,900원",images/매운돈가스반상_돈가스반상.jpg,35.8944285,128.610389,TRUE,TRUE,FALSE,FALSE,FALSE,FALSE,FALSE
"마라탕(소) (마라관) / 1,500원 (100g당)",images/마라탕소_저스트마라관.jpg,35.893427,128.6078846,TRUE,TRUE,FALSE,FALSE,FALSE,FALSE,FALSE
"크랩파스타(2인) (림터) / 30,000원",images/크랩파스타2인_림터.jpg,35.8921353,128.6075789,TRUE,TRUE,FALSE,FALSE,FALSE,FALSE,FALSE
"불고기 3인분 (송정숯불갈비) / 15,000원 (1인분당)",images/불고기_송정.jpg,35.8921557,128.6054437,TRUE,TRUE,FALSE,FALSE,FALSE,FALSE,FALSE
"돈찜 (고기한마당) / 6,000원",images/돈찜_고기한마당.jpg,35.8884339,128.6033884,TRUE,FALSE,TRUE,FALSE,FALSE,FALSE,FALSE
"국대삼겹 (국대삼겹) / 2,900원",images/국대삼겹_국대삼겹.jpg,35.8937154,128.6084661,TRUE,TRUE,FALSE,FALSE,FALSE,FALSE,FALSE
"마약찜닭(소) (나린찜닭) / 13,000원",images/마약찜닭소_나린찜닭.jpg,35.8918829,128.6077642,TRUE,TRUE,FALSE,FALSE,FALSE,FALSE,FALSE
"매콤철판치즈돈가스 (까츠야) / 7,000원",images/매콤철판고구마치즈돈가스_까츠야.jpg,35.8931435,128.609257,TRUE,TRUE,FALSE,FALSE,FALSE,FALSE,FALSE
"다니다니샌드 (다니상점) / 6,000원 (1개는 3,500원)",images/다니다니샌드_다니상점.jpg,35.8881803,128.6169712,TRUE,FALSE,FALSE,FALSE,FALSE,TRUE,FALSE
"꼬깔면탕 (왕추찜닭) / 7,000원",images/꼬깔면탕_왕추찜닭.jpg,35.8880607,128.603247,TRUE,FALSE,TRUE,FALSE,FALSE,FALSE,FALSE
"중화비밤밥 (기황후) / 6,000원",images/중화비빔밥_기황후.jpg,35.88967,128.6177027,TRUE,FALSE,FALSE,FALSE,FALSE,TRUE,FALSE
"크림찜닭(반마리) (봉대박찜닭) / 22,000원",images/크림찜닭_봉대박.jpg,35.8945114,128.6100385,TRUE,TRUE,FALSE,FALSE,FALSE,FALSE,FALSE
"피자돈까스 (돈가스백작) / 7,500원",images/피자돈가스_돈가스백작.jpg,35.8849473,128.6100814,TRUE,FALSE,FALSE,TRUE,FALSE,FALSE,FALSE
"수제흑돼지돈까스 (모이다식탁) /7,000원",images/수제흑돼지돈까스_모이다식탁.jpg,35.8847813,128.6136587,TRUE,FALSE,FALSE,FALSE,TRUE,FALSE,FALSE
"고기볶음2인 (우리분식) / 10,000원 (1인분 5,000원)",images/고기볶음_우리분식.jpg,35.8849872,128.6098802,TRUE,FALSE,FALSE,TRUE,FALSE,FALSE,FALSE
"크림치즈볼피자(S) (몽땅) / 12,900원",images/크림치즈볼피자_몽땅.jpg,35.8831555,128.6097188,TRUE,FALSE,FALSE,TRUE,FALSE,FALSE,FALSE
